{
  "cities": [
    {"name": "Colombo", "country": "Sri Lanka", "lat": 6.9271, "lng": 79.8612},
    {"name": "Kandy", "country": "Sri Lanka", "lat": 7.2906, "lng": 80.6337},
    {"name": "Galle", "country": "Sri Lanka", "lat": 6.0535, "lng": 80.2210},
    {"name": "Jaffna", "country": "Sri Lanka", "lat": 9.6615, "lng": 80.0255},
    {"name": "Negombo", "country": "Sri Lanka", "lat": 7.2008, "lng": 79.8358},
    {"name": "New York", "country": "USA", "lat": 40.7128, "lng": -74.0060},
    {"name": "Los Angeles", "country": "USA", "lat": 34.0522, "lng": -118.2437},
    {"name": "London", "country": "UK", "lat": 51.5074, "lng": -0.1278},
    {"name": "Paris", "country": "France", "lat": 48.8566, "lng": 2.3522},
    {"name": "Tokyo", "country": "Japan", "lat": 35.6762, "lng": 139.6503},
    {"name": "Dubai", "country": "UAE", "lat": 25.2048, "lng": 55.2708},
    {"name": "Singapore", "country": "Singapore", "lat": 1.3521, "lng": 103.8198},
    {"name": "Hong Kong", "country": "China", "lat": 22.3193, "lng": 114.1694},
    {"name": "Bangkok", "country": "Thailand", "lat": 13.7563, "lng": 100.5018},
    {"name": "Mumbai", "country": "India", "lat": 19.0760, "lng": 72.8777},
    {"name": "Delhi", "country": "India", "lat": 28.7041, "lng": 77.1025},
    {"name": "Bangalore", "country": "India", "lat": 12.9716, "lng": 77.5946},
    {"name": "Sydney", "country": "Australia", "lat": -33.8688, "lng": 151.2093},
    {"name": "Melbourne", "country": "Australia", "lat": -37.8136, "lng": 144.9631},
    {"name": "Toronto", "country": "Canada", "lat": 43.6532, "lng": -79.3832},
    {"name": "Vancouver", "country": "Canada", "lat": 49.2827, "lng": -123.1207},
    {"name": "Berlin", "country": "Germany", "lat": 52.5200, "lng": 13.4050},
    {"name": "Rome", "country": "Italy", "lat": 41.9028, "lng": 12.4964},
    {"name": "Madrid", "country": "Spain", "lat": 40.4168, "lng": -3.7038},
    {"name": "Barcelona", "country": "Spain", "lat": 41.3851, "lng": 2.1734},
    {"name": "Amsterdam", "country": "Netherlands", "lat": 52.3676, "lng": 4.9041},
    {"name": "Istanbul", "country": "Turkey", "lat": 41.0082, "lng": 28.9784},
    {"name": "Moscow", "country": "Russia", "lat": 55.7558, "lng": 37.6173},
    {"name": "Seoul", "country": "South Korea", "lat": 37.5665, "lng": 126.9780},
    {"name": "Beijing", "country": "China", "lat": 39.9042, "lng": 116.4074},
    {"name": "Shanghai", "country": "China", "lat": 31.2304, "lng": 121.4737},
    {"name": "Kuala Lumpur", "country": "Malaysia", "lat": 3.1390, "lng": 101.6869},
    {"name": "Jakarta", "country": "Indonesia", "lat": -6.2088, "lng": 106.8456},
    {"name": "Manila", "country": "Philippines", "lat": 14.5995, "lng": 120.9842},
    {"name": "Ho Chi Minh City", "country": "Vietnam", "lat": 10.8231, "lng": 106.6297},
    {"name": "Hanoi", "country": "Vietnam", "lat": 21.0285, "lng": 105.8542},
    {"name": "Cairo", "country": "Egypt", "lat": 30.0444, "lng": 31.2357},
    {"name": "Cape Town", "country": "South Africa", "lat": -33.9249, "lng": 18.4241},
    {"name": "Nairobi", "country": "Kenya", "lat": -1.2864, "lng": 36.8172},
    {"name": "São Paulo", "country": "Brazil", "lat": -23.5505, "lng": -46.6333},
    {"name": "Rio de Janeiro", "country": "Brazil", "lat": -22.9068, "lng": -43.1729},
    {"name": "Buenos Aires", "country": "Argentina", "lat": -34.6037, "lng": -58.3816},
    {"name": "Mexico City", "country": "Mexico", "lat": 19.4326, "lng": -99.1332},
    {"name": "Lima", "country": "Peru", "lat": -12.0464, "lng": -77.0428},
    {"name": "Bogotá", "country": "Colombia", "lat": 4.7110, "lng": -74.0721},
    {"name": "Santiago", "country": "Chile", "lat": -33.4489, "lng": -70.6693},
    {"name": "Lisbon", "country": "Portugal", "lat": 38.7223, "lng": -9.1393},
    {"name": "Athens", "country": "Greece", "lat": 37.9838, "lng": 23.7275},
    {"name": "Vienna", "country": "Austria", "lat": 48.2082, "lng": 16.3738},
    {"name": "Prague", "country": "Czech Republic", "lat": 50.0755, "lng": 14.4378}
  ]
}
